{
    "00AK": {
        "icao": "00AK",
        "iata": "",
        "name": "Lowell Field",
        "city": "Anchor Point",
        "state": "Alaska",
        "country": "US",
        "elevation": 450,
        "lat": 59.94919968,
        "lon": -151.695999146,
        "tz": "America\/Anchorage"
    },
    "00AL": {
        "icao": "00AL",
        "iata": "",
        "name": "Epps Airpark",
        "city": "Harvest",
        "state": "Alabama",
        "country": "US",
        "elevation": 820,
        "lat": 34.8647994995,
        "lon": -86.7703018188,
        "tz": "America\/Chicago"
    },
    "00AZ": {
        "icao": "00AZ",
        "iata": "",
        "name": "Cordes Airport",
        "city": "Cordes",
        "state": "Arizona",
        "country": "US",
        "elevation": 3810,
        "lat": 34.3055992126,
        "lon": -112.1650009155,
        "tz": "America\/Phoenix"
    },
    "00CA": {
        "icao": "00CA",
        "iata": "",
        "name": "Goldstone \/Gts\/ Airport",
        "city": "Barstow",
        "state": "California",
        "country": "US",
        "elevation": 3038,
        "lat": 35.3504981995,
        "lon": -116.888000488,
        "tz": "America\/Los_Angeles"
    },
    "00CO": {
        "icao": "00CO",
        "iata": "",
        "name": "Cass Field",
        "city": "Briggsdale",
        "state": "Colorado",
        "country": "US",
        "elevation": 4830,
        "lat": 40.6222000122,
        "lon": -104.34400177,
        "tz": "America\/Denver"
    },
    "00FA": {
        "icao": "00FA",
        "iata": "",
        "name": "Grass Patch Airport",
        "city": "Bushnell",
        "state": "Florida",
        "country": "US",
        "elevation": 53,
        "lat": 28.6455001831,
        "lon": -82.21900177,
        "tz": "America\/New_York"
    },
    "00FL": {
        "icao": "00FL",
        "iata": "",
        "name": "River Oak Airport",
        "city": "Okeechobee",
        "state": "Florida",
        "country": "US",
        "elevation": 35,
        "lat": 27.2308998108,
        "lon": -80.9692001343,
        "tz": "America\/New_York"
    },
    "00GA": {
        "icao": "00GA",
        "iata": "",
        "name": "Lt World Airport",
        "city": "Lithonia",
        "state": "Georgia",
        "country": "US",
        "elevation": 700,
        "lat": 33.7675018311,
        "lon": -84.0682983398,
        "tz": "America\/New_York"
    },
    "00ID": {
        "icao": "00ID",
        "iata": "",
        "name": "Delta Shores Airport",
        "city": "Clark Fork",
        "state": "Idaho",
        "country": "US",
        "elevation": 2064,
        "lat": 48.1453018188,
        "lon": -116.2139968872,
        "tz": "America\/Los_Angeles"
    },
    "00IL": {
        "icao": "00IL",
        "iata": "",
        "name": "Hammer Airport",
        "city": "Polo",
        "state": "Illinois",
        "country": "US",
        "elevation": 840,
        "lat": 41.9784011841,
        "lon": -89.5604019165,
        "tz": "America\/Chicago"
    },
    "00IS": {
        "icao": "00IS",
        "iata": "",
        "name": "Hayenga's Cant Find Farms Airport",
        "city": "Kings",
        "state": "Illinois",
        "country": "US",
        "elevation": 820,
        "lat": 40.0256004333,
        "lon": -89.1229019165,
        "tz": "America\/Chicago"
    },
    "00KS": {
        "icao": "00KS",
        "iata": "",
        "name": "Hayden Farm Airport",
        "city": "Gardner",
        "state": "Kansas",
        "country": "US",
        "elevation": 1100,
        "lat": 38.7277984619,
        "lon": -94.9304962158,
        "tz": "America\/Chicago"
    },
    "00KY": {
        "icao": "00KY",
        "iata": "",
        "name": "Robbins Roost Airport",
        "city": "Stanford",
        "state": "Kentucky",
        "country": "US",
        "elevation": 1265,
        "lat": 37.4094009399,
        "lon": -84.6196975708,
        "tz": "America\/New_York"
    },
    "00LS": {
        "icao": "00LS",
        "iata": "",
        "name": "Lejeune Airport",
        "city": "Esterwood",
        "state": "Louisiana",
        "country": "US",
        "elevation": 12,
        "lat": 30.1362991333,
        "lon": -92.429397583,
        "tz": "America\/Chicago"
    },
    "00MD": {
        "icao": "00MD",
        "iata": "",
        "name": "Slater Field",
        "city": "Federalsburg",
        "state": "Maryland",
        "country": "US",
        "elevation": 45,
        "lat": 38.7570991516,
        "lon": -75.7537994385,
        "tz": "America\/New_York"
    },
    "00MN": {
        "icao": "00MN",
        "iata": "",
        "name": "Battle Lake Municipal Airport",
        "city": "Battle Lake",
        "state": "Minnesota",
        "country": "US",
        "elevation": 1365,
        "lat": 46.2999992371,
        "lon": -95.700302124,
        "tz": "America\/Chicago"
    },
    "00MO": {
        "icao": "00MO",
        "iata": "",
        "name": "Cooper Flying Service Airport",
        "city": "Alba",
        "state": "Missouri",
        "country": "US",
        "elevation": 970,
        "lat": 37.2028007507,
        "lon": -94.412399292,
        "tz": "America\/Chicago"
    },
    "00MT": {
        "icao": "00MT",
        "iata": "",
        "name": "Sands Ranch Airport",
        "city": "Havre",
        "state": "Montana",
        "country": "US",
        "elevation": 2600,
        "lat": 48.5374984741,
        "lon": -109.7050018311,
        "tz": "America\/Denver"
    },
    "00NC": {
        "icao": "00NC",
        "iata": "",
        "name": "North Raleigh Airport",
        "city": "Louisburg",
        "state": "North Carolina",
        "country": "US",
        "elevation": 348,
        "lat": 36.0852012634,
        "lon": -78.3713989258,
        "tz": "America\/New_York"
    },
    "00NY": {
        "icao": "00NY",
        "iata": "",
        "name": "Weiss Airfield",
        "city": "West Bloomfield",
        "state": "New York",
        "country": "US",
        "elevation": 1000,
        "lat": 42.900100708,
        "lon": -77.4997024536,
        "tz": "America\/New_York"
    },
    "00OH": {
        "icao": "00OH",
        "iata": "",
        "name": "Exit 3 Airport",
        "city": "Wauseon",
        "state": "Ohio",
        "country": "US",
        "elevation": 785,
        "lat": 41.5909004211,
        "lon": -84.1421966553,
        "tz": "America\/New_York"
    },
    "00PN": {
        "icao": "00PN",
        "iata": "",
        "name": "Ferrell Field",
        "city": "Mercer",
        "state": "Pennsylvania",
        "country": "US",
        "elevation": 1301,
        "lat": 41.2995,
        "lon": -80.211111,
        "tz": "America\/New_York"
    },
    "00PS": {
        "icao": "00PS",
        "iata": "",
        "name": "Thomas Field",
        "city": "Loysville",
        "state": "Pennsylvania",
        "country": "US",
        "elevation": 815,
        "lat": 40.3777999878,
        "lon": -77.3653030396,
        "tz": "America\/New_York"
    },
    "00SC": {
        "icao": "00SC",
        "iata": "",
        "name": "Flying O Airport",
        "city": "Sumter",
        "state": "South Carolina",
        "country": "US",
        "elevation": 150,
        "lat": 34.0093994141,
        "lon": -80.2671966553,
        "tz": "America\/New_York"
    },
    "00TN": {
        "icao": "00TN",
        "iata": "",
        "name": "Ragsdale Road Airport",
        "city": "Manchester",
        "state": "Tennessee",
        "country": "US",
        "elevation": 1100,
        "lat": 35.5158996582,
        "lon": -85.9535980225,
        "tz": "America\/Chicago"
    },
    "00TS": {
        "icao": "00TS",
        "iata": "",
        "name": "Alpine Range Airport",
        "city": "Everman",
        "state": "Texas",
        "country": "US",
        "elevation": 670,
        "lat": 32.6076011658,
        "lon": -97.2419967651,
        "tz": "America\/Chicago"
    },
    "00VA": {
        "icao": "00VA",
        "iata": "",
        "name": "Vaughan Airport",
        "city": "Alton",
        "state": "Virginia",
        "country": "US",
        "elevation": 551,
        "lat": 36.57600021,
        "lon": -78.9991684,
        "tz": "America\/New_York"
    },
    "00VI": {
        "icao": "00VI",
        "iata": "",
        "name": "Groundhog Mountain Airport",
        "city": "Hillsville",
        "state": "Virginia",
        "country": "US",
        "elevation": 2680,
        "lat": 36.6632995605,
        "lon": -80.49949646,
        "tz": "America\/New_York"
    },
    "00WA": {
        "icao": "00WA",
        "iata": "",
        "name": "Howell Airport",
        "city": "Longbranch",
        "state": "Washington",
        "country": "US",
        "elevation": 150,
        "lat": 47.1783981323,
        "lon": -122.7720031738,
        "tz": "America\/Los_Angeles"
    },
    "00WI": {
        "icao": "00WI",
        "iata": "",
        "name": "Northern Lite Airport",
        "city": "Waupaca",
        "state": "Wisconsin",
        "country": "US",
        "elevation": 860,
        "lat": 44.3042984009,
        "lon": -89.0501022339,
        "tz": "America\/Chicago"
    },
    "00WN": {
        "icao": "00WN",
        "iata": "",
        "name": "Hawks Run Airport",
        "city": "Asotin",
        "state": "Washington",
        "country": "US",
        "elevation": 2900,
        "lat": 46.25,
        "lon": -117.2490005493,
        "tz": "America\/Los_Angeles"
    },
    "00WV": {
        "icao": "00WV",
        "iata": "",
        "name": "Lazy J. Aerodrome",
        "city": "Beverly",
        "state": "West Virginia",
        "country": "US",
        "elevation": 2060,
        "lat": 38.8288993835,
        "lon": -79.8660964966,
        "tz": "America\/New_York"
    },
    "00XS": {
        "icao": "00XS",
        "iata": "",
        "name": "L P Askew Farms Airport",
        "city": "O'Donnell",
        "state": "Texas",
        "country": "US",
        "elevation": 3110,
        "lat": 33.0334014893,
        "lon": -101.9339981079,
        "tz": "America\/Chicago"
    },
    "01AL": {
        "icao": "01AL",
        "iata": "",
        "name": "Ware Island Airport",
        "city": "Clanton",
        "state": "Alabama",
        "country": "US",
        "elevation": 344,
        "lat": 32.9459991455,
        "lon": -86.5139007568,
        "tz": "America\/Chicago"
    },
    "01CL": {
        "icao": "01CL",
        "iata": "",
        "name": "Swansboro Country Airport",
        "city": "Placerville",
        "state": "California",
        "country": "US",
        "elevation": 2594,
        "lat": 38.7999000549,
        "lon": -120.7340011597,
        "tz": "America\/Los_Angeles"
    },
    "01FA": {
        "icao": "01FA",
        "iata": "",
        "name": "Rybolt Ranch Airport",
        "city": "Orlando",
        "state": "Florida",
        "country": "US",
        "elevation": 55,
        "lat": 28.5893993378,
        "lon": -81.144203186,
        "tz": "America\/New_York"
    },
    "01FL": {
        "icao": "01FL",
        "iata": "",
        "name": "Cedar Knoll Flying Ranch Airport",
        "city": "Geneva",
        "state": "Florida",
        "country": "US",
        "elevation": 19,
        "lat": 28.7819004059,
        "lon": -81.1592025757,
        "tz": "America\/New_York"
    },
    "01GE": {
        "icao": "01GE",
        "iata": "",
        "name": "The Farm Airport",
        "city": "Wrightsville",
        "state": "Georgia",
        "country": "US",
        "elevation": 375,
        "lat": 32.6744003296,
        "lon": -82.7711029053,
        "tz": "America\/New_York"
    },
    "01IA": {
        "icao": "01IA",
        "iata": "",
        "name": "Stender Airport",
        "city": "Maysville",
        "state": "Iowa",
        "country": "US",
        "elevation": 725,
        "lat": 41.6610984802,
        "lon": -90.7413024902,
        "tz": "America\/Chicago"
    },
    "01ID": {
        "icao": "01ID",
        "iata": "",
        "name": "Lava Hot Springs Airport",
        "city": "Lava Hot Springs",
        "state": "Idaho",
        "country": "US",
        "elevation": 5268,
        "lat": 42.6082000732,
        "lon": -112.0319976807,
        "tz": "America\/Boise"
    },
    "01II": {
        "icao": "01II",
        "iata": "",
        "name": "Myers Field",
        "city": "Lizton",
        "state": "Indiana",
        "country": "US",
        "elevation": 950,
        "lat": 39.8849983215,
        "lon": -86.5066986084,
        "tz": "America\/Indiana\/Indianapolis"
    },
    "01IS": {
        "icao": "01IS",
        "iata": "",
        "name": "William E. Koenig Airport",
        "city": "Dow",
        "state": "Illinois",
        "country": "US",
        "elevation": 670,
        "lat": 39.0162010193,
        "lon": -90.3181991577,
        "tz": "America\/Chicago"
    },
    "01KS": {
        "icao": "01KS",
        "iata": "",
        "name": "Flying N Ranch Airport",
        "city": "Lost Springs",
        "state": "Kansas",
        "country": "US",
        "elevation": 1485,
        "lat": 38.540599823,
        "lon": -97.0033035278,
        "tz": "America\/Chicago"
    },
    "01LA": {
        "icao": "01LA",
        "iata": "",
        "name": "Barham Airport",
        "city": "Oak Ridge",
        "state": "Louisiana",
        "country": "US",
        "elevation": 90,
        "lat": 32.638999939,
        "lon": -91.7736968994,
        "tz": "America\/Chicago"
    },
    "01LL": {
        "icao": "01LL",
        "iata": "",
        "name": "Schumaier Restricted Landing Area",
        "city": "Pinckneyville",
        "state": "Illinois",
        "country": "US",
        "elevation": 555,
        "lat": 38.1258010864,
        "lon": -89.4638977051,
        "tz": "America\/Chicago"
    },
    "01LS": {
        "icao": "01LS",
        "iata": "",
        "name": "Country Breeze Airport",
        "city": "Slaughter",
        "state": "Louisiana",
        "country": "US",
        "elevation": 125,
        "lat": 30.7059993744,
        "lon": -91.0774002075,
        "tz": "America\/Chicago"
    },
    "01MT": {
        "icao": "01MT",
        "iata": "",
        "name": "Crystal Lakes Resort Airport",
        "city": "Fortine",
        "state": "Montana",
        "country": "US",
        "elevation": 3141,
        "lat": 48.789100647,
        "lon": -114.8799972534,
        "tz": "America\/Denver"
    },
    "01NC": {
        "icao": "01NC",
        "iata": "",
        "name": "Topsail Airpark",
        "city": "Holly Ridge",
        "state": "North Carolina",
        "country": "US",
        "elevation": 65,
        "lat": 34.4752998352,
        "lon": -77.5813980103,
        "tz": "America\/New_York"
    },
    "01NE": {
        "icao": "01NE",
        "iata": "",
        "name": "Detour Airport",
        "city": "Wellfleet",
        "state": "Nebraska",
        "country": "US",
        "elevation": 3000,
        "lat": 40.8436012268,
        "lon": -100.6529998779,
        "tz": "America\/Chicago"
    },
    "01NH": {
        "icao": "01NH",
        "iata": "",
        "name": "Moore Airfield",
        "city": "Enfield",
        "state": "New Hampshire",
        "country": "US",
        "elevation": 835,
        "lat": 43.6445007324,
        "lon": -72.0869979858,
        "tz": "America\/New_York"
    },
    "01NM": {
        "icao": "01NM",
        "iata": "",
        "name": "Champion Ranch Airport",
        "city": "Artesia",
        "state": "New Mexico",
        "country": "US",
        "elevation": 3630,
        "lat": 33.008611,
        "lon": -104.540278,
        "tz": "America\/Denver"
    },
    "01NV": {
        "icao": "01NV",
        "iata": "",
        "name": "Lantana Ranch Airport",
        "city": "Yerington",
        "state": "Nevada",
        "country": "US",
        "elevation": 4600,
        "lat": 38.7639007568,
        "lon": -119.0270004272,
        "tz": "America\/Los_Angeles"
    },
    "01OK": {
        "icao": "01OK",
        "iata": "",
        "name": "Lawrence Airport",
        "city": "Eakly",
        "state": "Oklahoma",
        "country": "US",
        "elevation": 1525,
        "lat": 35.2944984436,
        "lon": -98.6364974976,
        "tz": "America\/Chicago"
    },
    "01OR": {
        "icao": "01OR",
        "iata": "",
        "name": "Red & White Flying Service Airport",
        "city": "Silver Lake",
        "state": "Oregon",
        "country": "US",
        "elevation": 4346,
        "lat": 43.1193008423,
        "lon": -121.0449981689,
        "tz": "America\/Los_Angeles"
    },
    "01PN": {
        "icao": "01PN",
        "iata": "",
        "name": "Bierly(Personal Use) Airport",
        "city": "Bellefonte",
        "state": "Pennsylvania",
        "country": "US",
        "elevation": 960,
        "lat": 40.9305992126,
        "lon": -77.738899231,
        "tz": "America\/New_York"
    },
    "01PS": {
        "icao": "01PS",
        "iata": "",
        "name": "Nort's Resort Airport",
        "city": "Meshoppen",
        "state": "Pennsylvania",
        "country": "US",
        "elevation": 1040,
        "lat": 41.5959014893,
        "lon": -76.0296020508,
        "tz": "America\/New_York"
    },
    "01SC": {
        "icao": "01SC",
        "iata": "",
        "name": "York Airport",
        "city": "York",
        "state": "South Carolina",
        "country": "US",
        "elevation": 779,
        "lat": 35.0321006775,
        "lon": -81.2527999878,
        "tz": "America\/New_York"
    }
}